[
  {"id":"manhangjae","cat":"mtb","name_ko":"만항재","name_en":"Manhangjae","country":"KR","lat":37.1483,"lng":128.8989,"youtube":["OarTvbqfP7I"],"photos":[]},
  {"id":"santa-monica","cat":"mtb","name_ko":"산타모니카","name_en":"Santa Monica Mtns","country":"US","lat":34.0953,"lng":-118.8028,"youtube":["CcG6CsCgIv4"],"photos":[]},
  {"id":"sydney-tour","cat":"mtb","name_ko":"시드니 투어","name_en":"Sydney Tour (Royal NP·Berowra·Blue Mtns)","country":"AU","lat":-33.8688,"lng":151.2093,"youtube":["tWjzmWgtSPw"],"photos":[]},
  {"id":"buramsan-hakdoam","cat":"mtb","name_ko":"불암산 학도암","name_en":"Buramsan Hakdoam","country":"KR","lat":37.6519,"lng":127.0897,"youtube":["wT05VZmwirM"],"photos":[]},
  {"id":"seorak-granfondo","cat":"road_cycling","name_ko":"설악산 설악그란폰도","name_en":"Seoraksan Gran Fondo","country":"KR","lat":37.8700,"lng":128.2625,"youtube":["ECZrdmzOM1E"],"photos":[]},
  {"id":"hwaak-domachi","cat":"road_cycling","name_ko":"화악산 도마치재","name_en":"Hwaaksan Domachijae","country":"KR","lat":38.0412,"lng":127.4520,"youtube":["1KwEfABT6D4"],"photos":[]},
  {"id":"gomori","cat":"road_cycling","name_ko":"고모리","name_en":"Gomori","country":"KR","lat":37.7845,"lng":127.1539,"youtube":["NZYkoesePjI"],"photos":[]},
  {"id":"bukhan-doseonsa","cat":"road_cycling","name_ko":"북한산 도선사","name_en":"Bukhansan Doseonsa","country":"KR","lat":37.6625,"lng":127.0125,"youtube":["8khoFWfT3TQ"],"photos":[]},
  {"id":"arizona-1","cat":"motorcycle","name_ko":"애리조나 1","name_en":"Arizona 1","country":"US","lat":34.8697,"lng":-111.7601,"youtube":["0p1WDesNMwY"],"photos":[]},
  {"id":"arizona-2","cat":"motorcycle","name_ko":"애리조나 2","name_en":"Arizona 2","country":"US","lat":34.8720,"lng":-111.7580,"youtube":["9U-wfDHy83M"],"photos":[]},
  {"id":"jugeumsan","cat":"hiking","name_ko":"주금산","name_en":"Jugeumsan","country":"KR","lat":37.7833,"lng":127.2833,"youtube":["w2rf8wRHLok"],"photos":[]}
]
